{"type":"Topology","objects":{"bars":{"type":"GeometryCollection","geometries":[{"type":"Point","properties":{"marker-symbol":"bar","name":"The Exchange","address":"1719 G St NW"},"coordinates":[6780,7098]},{"type":"Point","properties":{"marker-symbol":"bar","name":"Blackfin","address":"1620 I St NW"},"coordinates":[6980,7378]},{"type":"Point","properties":{"marker-symbol":"bar","name":"Churchkey","address":"1337 14th St NW","note":"Ask the bartender for the password"},"coordinates":[7718,7978]},{"type":"Point","properties":{"marker-symbol":"bar","name":"Busboys and Poets","address":"1025 5th St NW"},"coordinates":[9281,7504]},{"type":"Point","properties":{"marker-symbol":"bar","name":"SoHo Cafe","address":"2150 P St NW"},"coordinates":[5850,8145]},{"type":"Point","properties":{"marker-symbol":"bar","name":"Chinatown Coffee Company","address":"475 H St NW"},"coordinates":[9293,7247]},{"type":"Point","properties":{"marker-symbol":"bar","name":"Science Club","address":"1136 19th St NW"},"coordinates":[6358,7748]},{"type":"Point","properties":{"marker-symbol":"bar","name":"Wonderland Ballroom","address":"  1101 Kenyon St NW"},"coordinates":[8215,9999]},{"type":"Point","properties":{"marker-symbol":"bar","name":"Tryst","address":"2459 18th St NW"},"coordinates":[6478,9279]},{"type":"Point","properties":{"marker-symbol":"bar","name":"Boundary Stone","address":"116 Rhode Island Ave NW"},"coordinates":[9999,8693]},{"type":"Point","properties":{"marker-symbol":"bar","name":"Bistro Bohem","address":"600 Florida Ave Nw"},"coordinates":[9110,8674]},{"type":"Point","properties":{"marker-symbol":"bar","name":"Old Ebbitt","address":"675 15th St NW","note":"Ask the bartender for the WiFi password"},"coordinates":[7518,7076]},{"type":"Point","properties":{"marker-symbol":"bar","name":"Capitol City Brewing Company","address":"1100 New York Ave NW","note":"Ask the bartender for the password"},"coordinates":[8227,7325]}]}},"arcs":[],"transform":{"scale":[0.000008457445744573983,0.000010808780878087963],"translate":[-77.097225,38.821598]}}